[
  {"Name":"ABEWARDHENE J.A.M.O.R.","Address":"221, GONAMADEWATTA, BOMUGAMMANA, DIVULAPITIYA.","Latitude":"7.2303143","Longitude":"80.016474"},
  {"Name":"ABEYKOON C.S.","Address":"1/13, SCHOOL LANE, RAHULA ROAD, MATARA.","Latitude":"5.9525058","Longitude":"80.540223"},
  {"Name":"ABEYRATHNA A.M.S.S.","Address":"92/D, DEKINDHA, BALANA, KADUGANNAWA.","Latitude":"7.25347989999999","Longitude":"80.5108795"},
  {"Name":"ABEYWARDHANE R.N.","Address":"NO. 8, KOBBEWALA, GAMPOLA.","Latitude":"7.1601487","Longitude":"80.5799365"},
  {"Name":"ADHIKARI A.M.H.H.","Address":"NO. 64, ASOKA, THULAWALA, KOSWATTA.","Latitude":"7.3556304","Longitude":"79.8964888"},
  {"Name":"ADHIKARI S.H.A.M.S.H.","Address":"3, KANUWA, ADIPPALA, CHILAW.","Latitude":"7.5619894","Longitude":"79.8016569"},
  {"Name":"ADIKARI A.M.D.N.","Address":"160/A, SUMANGALA MAWATHA, WARIYAPOLA.","Latitude":"7.6256659","Longitude":"80.2341019"},
  {"Name":"AHAMED F.A.","Address":"256-E, SAILAN ROAD, KALMUNAIKUDY-01, KALMUNAI.","Latitude":"7.4082301","Longitude":"81.8356924"},
  {"Name":"AHEMAD I.I.","Address":"NO. 32, BAHIRAWA KANDA, KANDY.","Latitude":"7.2955631","Longitude":"80.6309571"},
  {"Name":"AHMADH M.S.S.","Address":"NO. 116 C, DEHIANGA SOUTH, MURUTHALAWA.","Latitude":"7.2964889","Longitude":"80.5598167"},
  {"Name":"AKALANKA N.W.K.D.","Address":"358/E, PALUHOMBAWA, GALEWELA.","Latitude":"7.75650449999999","Longitude":"80.5771737"},
  {"Name":"AKASH L.H.S.","Address":"ALUTHWATHTHA, ARIYAWANSA MAWATHA, WERADUWA, MATARA.","Latitude":"5.9419849","Longitude":"80.5727541999999"},
  {"Name":"AKSHAYA V.","Address":"PUTTUR ROAD, PUNNALAIKKADDUVAN SOUTH, CHUNNAKAM, JAFFNA.","Latitude":"9.7388658","Longitude":"80.0342443999999"},
  {"Name":"ALAHAKOON A.M.L.O.","Address":"240/A, KONDADENIYA, KATUGASTOTA.","Latitude":"7.32102139999999","Longitude":"80.6158404999999"},
  {"Name":"AMARAJEEWA S.T.S.","Address":"SANDANI, PANIDENIYA, MEEPAWALA, PODDALA.","Latitude":"6.10185429999999","Longitude":"80.219583"},
  {"Name":"AMARAKEERTHI H.K.K.G.","Address":"212/5, RASSAGALA ROAD, BALANGODA.","Latitude":"6.6919688","Longitude":"80.6526014"},
  {"Name":"AMARASOORIYA A.M.S.A.","Address":"45 B, PREMANANDA MAWATHA, GANEMULLA.","Latitude":"6.864718","Longitude":"80.0027087"},
  {"Name":"ANURADHA M.M.M.","Address":"JAYASEWANA, KOSGAHATHANNA, MIRAHAWATHTHA.","Latitude":"6.87515399999999","Longitude":"80.9339792"},
  {"Name":"APPUHAMY H.D.M.D.","Address":"LARAMA, PEIRIS WATHTHA, LUNUWILA.","Latitude":"7.35587819999999","Longitude":"79.8726523999999"},
  {"Name":"APPUHAMY K.I.M.S.","Address":"255/3, WEST KALUWARIPPUWA, KATANA.","Latitude":"","Longitude":""},
  {"Name":"ARACHCHI D.C.B.","Address":"KUSUM, RATHMALE, MATARA.","Latitude":"5.9647703","Longitude":"80.6913929"},
  {"Name":"ARACHCHI M.A.S.N.M.","Address":"NO. 217/C, PAHALAWEWA, THALAKIRIYAGAMA.","Latitude":"7.82531669999999","Longitude":"80.6208972"},
  {"Name":"ARAVINDA K.A.G.","Address":"WELLAWAYA, PALARUWA, MONARAGALA.","Latitude":"6.8502438","Longitude":"81.332235"},
  {"Name":"ARIYARATHNA D.B.S.","Address":"G/10, HUMBASWALANA JANAPADAYA, RUWANWELLA.","Latitude":"7.0458735","Longitude":"80.2537062999999"},
  {"Name":"ARUNASIRI M.R.P.","Address":"NO. 84, PUWAKGAHAWELA, BELIHULOYA.","Latitude":"6.7232878","Longitude":"80.7757514"},
  {"Name":"ASHWINTHAN G.K.","Address":"NO. 22, WIJAYABA MAWATHA, KALUBOWILA.","Latitude":"6.86355859999999","Longitude":"79.8725173999999"},
  {"Name":"ATHTHANAYAKA A.M.Y.N.","Address":"77/C3, HAGAMWELA ROAD, PADIYATHALAWA.","Latitude":"7.4320545","Longitude":"81.2133262"},
  {"Name":"ATHUKORALA L.A.K.S.","Address":"H/195/B, OLD HOSPITAL ROAD, WARAKAPOLA.","Latitude":"","Longitude":""},
  {"Name":"AWANTHA G.A.D.","Address":"NO. 12, DELGASWATTA, DENAGAMA EAST, DENAGAMA.","Latitude":"6.1142107","Longitude":"80.6616445"},
  {"Name":"BAANUJAN N.","Address":"NO. 392/9, NAVALAR ROAD, JAFFNA.","Latitude":"9.67686069999999","Longitude":"80.0022812999999"},
  {"Name":"BANDARA A.D.S.C.","Address":"E 40, MAHENAGAMA, WARAKAPOLA.","Latitude":"7.2383614","Longitude":"80.2146739"},
  {"Name":"BANDARA A.M.N.C.","Address":"220/D, GANEMULLA ROAD, BATAGAMA NORTH, JA-ELA.","Latitude":"7.068007","Longitude":"79.9091418"},
  {"Name":"BANDARA D.G.Y.C.W.","Address":"NO. 859/3, WELUWANAGAMA, UNAGASWEWA, ANURADHAPURA.","Latitude":"8.2931513","Longitude":"80.4360102"},
  {"Name":"BANDARA G.M.M.R.","Address":"NO. 4/3, UDABADALAWA, KURUNEGALA.","Latitude":"7.5214577","Longitude":"80.3313534"},
  {"Name":"BANDARA K.C.H.N.A.W.M.R.C.J.N.","Address":"NO. 63/2, KIRIDIGALA, BALANGODA.","Latitude":"6.66686109999999","Longitude":"80.7048083999999"},
  {"Name":"BANDARA K.G.R.I.","Address":"NO. 11/5, THOTAGAMUWA WATTA, PALAPATHWALA, MATALE.","Latitude":"7.50954569999999","Longitude":"80.6229786999999"},
  {"Name":"BANDARA L.R.H.I.","Address":"NO. 22E, PAHALAWATHTHA, C.E.B. LANE, KIRIBATHKUMBURA.","Latitude":"7.2679259","Longitude":"80.5749642999999"},
  {"Name":"BANDARA M.G.D.A.","Address":"1/42, SETHSIRIMAWATA, KOLONGOLLA, MONARAGALA.","Latitude":"6.8766173","Longitude":"81.3406289999999"},
  {"Name":"BANDARA P.D.G.P.I.","Address":"DAMBULUPURA, THAMBUTHTHEGAMA.","Latitude":"8.155694","Longitude":"80.2979278"},
  {"Name":"BANDARA R.M.K.T.","Address":"NO. 11, SOUTH LAKE ROAD, PALLANDENIYA, MASPOTHA, KURUNEGALA.","Latitude":"7.4913802","Longitude":"80.3613815"},
  {"Name":"BANDARA R.M.P.G.N.S.","Address":"NO. 147/1, YAYA 06, NEWTOWN, MEDIRIGIRIYA.","Latitude":"40.7719029999999","Longitude":"-73.9258335"},
  {"Name":"BASNAYAKE B.M.I.S.","Address":"BAMUNAPOTHA, WELLAWA.","Latitude":"7.5585998","Longitude":"80.3667498"},
  {"Name":"BASNAYAKE B.M.N.T.","Address":"281/B/04, EMBILMEEGAMA, PILIMATALAWA.","Latitude":"7.2625354","Longitude":"80.5618997"},
  {"Name":"CHAMIKA G.L.T.","Address":"NEAR THE MADOLA BRIDGE, IHALAGODA, WALAHANDUWA, GALLE.","Latitude":"6.0711276","Longitude":"80.270614"},
  {"Name":"CHAMIKA M.A.K.","Address":"KORALAGE WATTA, ELUWAWALA, DENIPITIYA.","Latitude":"5.9719782","Longitude":"80.4572063999999"},
  {"Name":"CHANCHALA S.N.","Address":"NEW ROAD, SITINAMALUWA, BELIATTA.","Latitude":"6.0420707","Longitude":"80.7651276"},
  {"Name":"CHANDIMAL P.A.K.D.","Address":"BOGAHAWATTA, GETAMANNA WEST, GETAMANNA.","Latitude":"6.041562","Longitude":"80.6790087"},
  {"Name":"CHANDRALAL U.H.S.","Address":"NO. 85 B, DELGAHAWATTA, ARAMBEGAMA, PILIMATHALAWA.","Latitude":"7.2663313","Longitude":"80.5521785"},
  {"Name":"CHANUKA B.D.K.","Address":"FERRY ROAD, MEEGAMA, DHARGA TOWN.","Latitude":"6.4483086","Longitude":"80.0538483"},
  {"Name":"DANGALLA D.P.P.R.","Address":"B 28/1, THELKUMUDUWALA ROAD, THELKUMUDUWALA, AMPAGALA.","Latitude":"48.5877929","Longitude":"8.6751614"},
  {"Name":"DANTHANARAYANA K.","Address":"NO. 71, SOUTHERN PRIDE, KADURUDUWA, WANCHAWALA.","Latitude":"6.0314225","Longitude":"80.2634941"},
  {"Name":"DASANAYAKA D.M.M.T.","Address":"WADUPOLEWA, NIKAWERATIYA.","Latitude":"7.7463861","Longitude":"80.1316927"},
  {"Name":"DASSANAYAKA D.G.S.","Address":"NO. 278/A, KURANA, KATUNAYAKA.","Latitude":"7.18495169999999","Longitude":"79.8953442"},
  {"Name":"DE CROOS RUBIN M.L.","Address":"373/11A, MAIN STREET, NEGOMBO, SRI LANKA.","Latitude":"7.21009319999999","Longitude":"79.8341411999999"},
  {"Name":"DE SILVA H.D.S.","Address":"NO. 163/4, RENDA GEDARA WATTA, GALLE ROAD, BADDEGAMA.","Latitude":"6.17168029999999","Longitude":"80.1785462"},
  {"Name":"DE SILVA M.R.P.","Address":"ALAGAWA GEDARA, KABALANA ROAD, KATHALUWA, AHANGAMA.","Latitude":"34.0586531","Longitude":"-118.4431374"},
  {"Name":"DENAGAMA D.M.S.","Address":"SUHADA, GORAKAGAHAWATTA, ALAHENPITA JUNCTION, THALPAVILA.","Latitude":"","Longitude":""},
  {"Name":"DEVAPRIYA P.P.M.","Address":"SHANTHI SEWANA, UDUMULLA ROAD, KALUPE, HIKKADUWA.","Latitude":"6.1394676","Longitude":"80.1062860999999"},
  {"Name":"DEWAPRIYA G.D.P.S.","Address":"360/B, TEMPLE ROAD, UGGALBODA WEST, GAMPAHA.","Latitude":"7.1376098","Longitude":"79.9458514"},
  {"Name":"DEWMINI M.A.N.K.","Address":"159/A10, \"SHASHIKALA\", KARATHOTA ROAD, HETTIYAWALA, PUHULWELLA.","Latitude":"6.054177","Longitude":"80.6583672"},
  {"Name":"DEWMINI S.K.C.","Address":"75/4, YAYA 18, SHALAWA ROAD, ERAMINIYAYA, ANGUNAKOLAPELESSA.","Latitude":"6.8725254","Longitude":"79.9110599999999"},
  {"Name":"DHANANJI K.S.","Address":"ISHARA, NARADDE GEDARA, KIRINDA, PUHULWELLA.","Latitude":"6.0463364","Longitude":"80.6322881"},
  {"Name":"DHANAPALA S.N.A.","Address":"173/B, \"HANSAVILA\", SEENIPELLA, MULATIYANA, MATARA.","Latitude":"6.1620886","Longitude":"80.5855038"},
  {"Name":"DHARMADASA R.A.H.B.","Address":"WATHTHAHENA, WATHURAWA, KALAWANA, RATHNAPURA.","Latitude":"7.3471342","Longitude":"80.6789623"},
  {"Name":"DHARMAKEERTHI H.G.I.N.","Address":"NO. 36, SARVODAYA ROAD, NAGAHATENNA, MATALE.","Latitude":"7.43889079999999","Longitude":"80.6184301999999"},
  {"Name":"DHARMASENA S.M.M.S.K.","Address":"PRARTHANA, BAYAWA, AWLEGAMA.","Latitude":"","Longitude":""},
  {"Name":"DILHARA K.K.G.P.","Address":"DIYANANGODA, THAWALAMA.","Latitude":"6.3347269","Longitude":"80.3421984"},
  {"Name":"DILMINDA P.C.","Address":"KUDAHALMILLEWA, POONEWA.","Latitude":"8.60208729999999","Longitude":"80.4715866"},
  {"Name":"DILSHAN D.M.T.","Address":"NO. 10, IHALA ALUTH ELA ROAD, KOSWATHTHA, BADULLA.","Latitude":"6.99340089999999","Longitude":"81.0549815"},
  {"Name":"DILSHAN H.A.L.L.","Address":"L/24, NEW TOWN, AMPARA.","Latitude":"7.3017563","Longitude":"81.6747295"},
  {"Name":"DILSHAN H.W.L.S.","Address":"H34/1, LEWKE, GALATHARA.","Latitude":"","Longitude":""},
  {"Name":"DILSHAN V.S.","Address":"NO. 100, PALLEKANDA ROAD, WALASMULLA.","Latitude":"6.15931849999999","Longitude":"80.6830837999999"},
  {"Name":"DILSHANI A.L.V.","Address":"9/5, WAKWALLA ROAD, GALLE.","Latitude":"6.03349939999999","Longitude":"80.2166853"},
  {"Name":"DINAKSHI P.K.S.","Address":"SAUMYA, MILLAGAHAWATTA, KODAGODA, IMADUWA.","Latitude":"6.0354366","Longitude":"80.3846824"},
  {"Name":"DINOSHAN F.R.J.J.","Address":"NO. 02, ODDAKKARAI ROAD, JAFFNA.","Latitude":"9.67105529999999","Longitude":"80.013443"},
  {"Name":"DISANAYAKA D.M.S.I.","Address":"UMANGAWA WATHTHA, POLPITIYA, KATUPOTHA.","Latitude":"7.5156976","Longitude":"80.1872090999999"},
  {"Name":"DISSANAYAKA D.M.H.B.","Address":"NO. 12/38, WEERAPURANAPPU PLACE, KANDY ROAD, MATALE.","Latitude":"7.45884849999999","Longitude":"80.6283031999999"},
  {"Name":"DISSANAYAKA D.M.N.H.","Address":"NO. 71, PAHALA DAHIGAMUWA, KURUNEGALA.","Latitude":"7.5277634","Longitude":"80.3533365"},
  {"Name":"DISSANAYAKA D.M.S.S.","Address":"YAYA 10, MAHARANORAWA, PALUGOLLA, GALGAMUWA.","Latitude":"","Longitude":""},
  {"Name":"DISSANAYAKE D.M.R.D.","Address":"NO. 444/2, GURUNNAHELAGAMA, NARANVITA, GAMPOLA.","Latitude":"7.1751373","Longitude":"80.5868921"},
  {"Name":"DISSANAYAKE D.M.S.I.","Address":"NO. 159, KANDY ROAD, KARAMADA, GELIOYA.","Latitude":"6.9750156","Longitude":"79.9241261"},
  {"Name":"DISSANAYAKE DMSH","Address":"212/1, MEDAGAMMEDDA, KARALLIYADDA, THELDENIYA.","Latitude":"7.3094015","Longitude":"80.7643952"},
  {"Name":"DISSANAYAKE M.D.","Address":"73/6, HEERASSAGALA LANE 2, KANDY.","Latitude":"7.27797919999999","Longitude":"80.6182698"},
  {"Name":"DISSANAYAKE P.D.","Address":"1041/B, STAGE 2, ANURADHAPURA.","Latitude":"8.31135179999999","Longitude":"80.4036508"},
  {"Name":"DODANDENIYA D.G.J.K.","Address":"NO. 40, ELLEKADE, ALAWATHUGODA.","Latitude":"7.4096608","Longitude":"80.6097949999999"},
  {"Name":"DULANJITH W.M.M.","Address":"NO. 27/1, SAPUMALGAMA, ALWATTA, MATALE.","Latitude":"7.4454265","Longitude":"80.6642811"},
  {"Name":"DULARA P.H.S.","Address":"NO. 51, ALUTH PARA, KANADARAWA, MEDAWACHCHIYA.","Latitude":"8.5374813","Longitude":"80.4909806"},
  {"Name":"DULSHANI A.P.G.K.","Address":"NO. 120, BOGOLLA, ULAPANE.","Latitude":"7.0987645","Longitude":"80.5605111"},
  {"Name":"EDIRIMANNA Y.H.","Address":"156/D, UHALLAGODA, REMUNA, ANGURUWATHOTA.","Latitude":"21.526555","Longitude":"86.8697068"},
  {"Name":"EDIRISINGHA E.D.N.L.","Address":"NO. 4/1, DENIYE GEDARA, IHALAMULLA, ANKUMBURA.","Latitude":"7.4467852","Longitude":"80.564677"},
  {"Name":"EDIRISINGHE H.K.D.","Address":"NO. 171/50, ANANDA MAWATHA, UDARA PLACE, KITHULAMPITIYA, GALLE.","Latitude":"6.06566569999999","Longitude":"80.2056147"},
  {"Name":"EDIRISINGHE W.A.K.S.D.","Address":"NO. 33/1, \"SASIRI\", WALIPITIYA, MIDDENIYA.","Latitude":"6.25135789999999","Longitude":"80.7641653"},
  {"Name":"EDIRISOORIYA D.M.B.","Address":"AHELAGAHA ARAWA, NEAR PIRIVENA, UDUWARA, HALI ELA.","Latitude":"6.9353172","Longitude":"81.0380778"},
  {"Name":"EKANAYAKA E.M.I.P","Address":"NO. 29/A, LUNUWELLA, KAPULIYADDA, KANDY.","Latitude":"7.2931588","Longitude":"80.6350107"},
  {"Name":"EKANAYAKA EMRS","Address":"56/1/A, BANDARANAYAKA ROAD, KATUBEDDA, MORATUWA, COLOMBO.","Latitude":"6.8014572","Longitude":"79.8996789"},
  {"Name":"EKANAYAKE E.M.L.B.","Address":"22, GALAGEDARA LANE, YATIWAWALA, KATUGASTHOTA.","Latitude":"7.3257593","Longitude":"80.6201219"},
  {"Name":"EKANAYAKE E.M.M.","Address":"NO. 529, PUTTLAM ROAD, KURUNEGALA.","Latitude":"7.49730509999999","Longitude":"80.3505289"},
  {"Name":"EKANAYAKE E.M.T.L.K.","Address":"131/4, RAMBUKKANA ROAD, KAWDELLA, GALAGEDARA.","Latitude":"7.3663526","Longitude":"80.5080311"},
  {"Name":"ENIYAVAN T.","Address":"NO. 215, ACHUCHUVELI SOUTH, ACHUCHUVELI.","Latitude":"9.7666325","Longitude":"80.1000024"},
  {"Name":"FERNANDO A.I.","Address":"NO. 88/C, KORATHOTA, KADUWELA.","Latitude":"6.9093747","Longitude":"80.0003875"},
  {"Name":"FERNANDO B.T.D.K.","Address":"NO. 74/D, HORAGASMULLA, DIVULAPITIYA.","Latitude":"7.2168854","Longitude":"80.0132292999999"},
  {"Name":"FERNANDO D.L.R.P.","Address":"NO. 53/F, AWARIYAWATTA, ALUBOMULLA, PANADURA.","Latitude":"6.7068973","Longitude":"79.9449868"},
  {"Name":"FERNANDO M.T.I.A.","Address":"109, ETHANAMADALA, KALUTARA NORTH.","Latitude":"6.6089783","Longitude":"79.9710261"},
  {"Name":"FERNANDO T.U.","Address":"NO. 260, MAHAEDANDA, KARANDENIYA.","Latitude":"6.292323","Longitude":"80.1145133"},
  {"Name":"FERNANDO W.S.K.O.","Address":"TEMPLE ROAD, RAKWANA.","Latitude":"6.45128309999999","Longitude":"80.6132313999999"},
  {"Name":"FONSEKA H.F.S.U.","Address":"636 3/B, WILAHENA ROAD, GONAWELA, KELANIYA.","Latitude":"6.96391439999999","Longitude":"79.9425696"},
  {"Name":"GAMAGE B.T.H.","Address":"NO. 9, SECOND LANE, KUMARATHUNGA ROAD, GAMPAHA.","Latitude":"7.0840484","Longitude":"80.0098314"},
  {"Name":"GAMAGE C.D.","Address":"366/30, 3RD LANE, PAMBURANA, MATARA.","Latitude":"5.9484799","Longitude":"80.5315785"},
  {"Name":"GAMAGE I.N.V.","Address":"NO. 319, VIHARA MAWATHA, BINGIRIYA.","Latitude":"7.5982234","Longitude":"79.937219"},
  {"Name":"GAMAGE M.G.D.D.","Address":"NO. 3B, SRI SARANANKARA ROAD, PAMANKADA, DEHIWALA.","Latitude":"6.8732022","Longitude":"79.872587"},
  {"Name":"GAMAGE N.N.J.","Address":"15/4, WIWEKARAMA ROAD, YAKAHALUWA, KIRIWATTUDUWA.","Latitude":"6.80390019999999","Longitude":"80.0336568"},
  {"Name":"GAMAGE P.K.","Address":"PATHMA HARDWARE, SRI DHAMMAWASA MAWATHA, NAKIADENIYA, GALLE.","Latitude":"6.1419736","Longitude":"80.3371812"},
  {"Name":"GAMLATH W.G.K.M.","Address":"PUWAKGAHADENIYA, THALAVITIYA ROAD, ELLAWALA, EHELIYAGODA.","Latitude":"6.8327085","Longitude":"80.2777249"},
  {"Name":"GANEGODA G.M.A.E.","Address":"PARAGAHAKOTUWA, PORAMANDALA, YATIGALOLUWA, POLGAHAWELA.","Latitude":"7.3341075","Longitude":"80.2637493"},
  {"Name":"GANGODAVILA G.M.T.D.","Address":"TEACHERS' QUARTERS, KU/KUMBALOLUWA K.V., PANALIYA, POLGAHAWELA.","Latitude":"7.3535125","Longitude":"80.3240371"},
  {"Name":"GOKARALLA R.M.N.K.","Address":"NO. 284/1, \"KUMARA VALLEY\" ESTATE, DELPITIYA, ATTABAGE.","Latitude":"42.3497135","Longitude":"-71.0845787"},
  {"Name":"GUGATHEESH N.","Address":"KARAMBAIKKURUCHCHY, WEST VARANY.","Latitude":"","Longitude":""},
  {"Name":"GUNARATHNA H.A.S.","Address":"WEDANIWASA, KABILIYAPOLA, HAKMANA.","Latitude":"6.0797155","Longitude":"80.6588043"},
  {"Name":"GUNASEKARA D.D.K.K.","Address":"PEARL ELECTRONIC, WALASMULLA ROAD, KATUWANA.","Latitude":"6.26266949999999","Longitude":"80.6885217999999"},
  {"Name":"GUNASEKARA S.A.D.C.","Address":"NO. 40/4, OBESEKARA MAWATHA, DARALUWA, BEMMULLA.","Latitude":"6.9130093","Longitude":"79.8924591999999"},
  {"Name":"GUNASINHA H.P.M.S.","Address":"21/78/2/A, THISSAPURA, UHANA.","Latitude":"7.30851819999999","Longitude":"81.6788364"},
  {"Name":"GUNATHILAKE N.R.P.","Address":"NO. 106/1, DUTUGAMUNU MAWATHA, WEWAGEDARA, KURUNEGALA.","Latitude":"6.9661259","Longitude":"79.8858827999999"},
  {"Name":"GUNAWARDANA S.N.","Address":"ATHMAGEWATHTHA, DENAGAMA NORTH, HAKMANA, MATARA.","Latitude":"6.10740539999999","Longitude":"80.6450953"},
  {"Name":"GUNAWARDANE H.D.W.","Address":"1/34, SCHOOL LANE, GABADAWEEDIYA, MATARA.","Latitude":"5.9560108","Longitude":"80.542456"},
  {"Name":"GUNAWARDHANA B.K.S.D.W.","Address":"187/02, RAILWAY ROAD, POTHUHARA.","Latitude":"7.42167239999999","Longitude":"80.3296664"},
  {"Name":"GUNAWARDHANE C.P.S.Y.","Address":"NO. 03, TELECOM PART, MAHAWELI CAMP, DEHIATTAKANDIYA.","Latitude":"7.6712796","Longitude":"81.046484"},
  {"Name":"HANAN I.L.F.B.","Address":"154/A, R.D.S. ROAD, SEMMANNODAI, VALAICHENAI, BATTICALOA.","Latitude":"7.9049453","Longitude":"81.52736"},
  {"Name":"HANOOS A.K.A","Address":"188 E, MEERASAHIB ROAD, ADDALAICHENAI 04.","Latitude":"7.2489373","Longitude":"81.8579508999999"},
  {"Name":"HANSAMALI T.G.M.","Address":"NO. 95, MALANA, BORALUKETIYA, KAMBURUPITIYA.","Latitude":"32.0617196","Longitude":"77.2613488"},
  {"Name":"HARIHARASUDAN R.","Address":"NO. 19/1 B, BOGAHAWATTE ROAD, HEKITTA, WATTALA.","Latitude":"6.9843894","Longitude":"79.8818373"},
  {"Name":"HASANTHA S.T.S.","Address":"NO. 21, SISILA GARDENS, DEHIWALA ROAD, MAHARAGAMA.","Latitude":"6.84234159999999","Longitude":"79.91794"},
  {"Name":"HATHI A.L.A.","Address":"117, AMEER ALIPURAM, IRAKKAMAM 05, AMPARA.","Latitude":"7.2438052","Longitude":"81.7159305"},
  {"Name":"HATHTHELLA H.A.D.T.N.","Address":"209/A/1, IHALAGAMA, GAMPAHA.","Latitude":"7.0840484","Longitude":"80.0098314"},
  {"Name":"HATHTHOTUWA P.D.","Address":"\"JAYANTHI\", PILANA, WANCHAWALA.","Latitude":"6.081103","Longitude":"80.28517"},
  {"Name":"HERATH H.M.I.S.","Address":"\"ISURU\", KUMBUKWEWA.","Latitude":"7.6386465","Longitude":"80.4343174"},
  {"Name":"HERATH H.M.L.D.","Address":"ARASANWEWA, SERUKELE.","Latitude":"7.7266149","Longitude":"79.9181332"},
  {"Name":"HERATH H.M.M.K.B.","Address":"A 18, PELAPOLWATTA, BAMUNAULLA, HEWADIVELA, RAMBUKKANA.","Latitude":"7.3671997","Longitude":"80.3721285"},
  {"Name":"HERATH H.M.M.N.","Address":"NO. 49, PANAMPITIYA, JAMBUGAHAPITIYA.","Latitude":"7.3595244","Longitude":"80.638935"},
  {"Name":"HERATH H.M.O.S.","Address":"WENDESIWATHTHA, KAVUDUPELELLLA, MATALE.","Latitude":"7.58543049999999","Longitude":"80.6254678"},
  {"Name":"HERATH H.M.R.D.","Address":"WARAMADA, THAMMITA, KUMBUKWEWA.","Latitude":"7.64050559999999","Longitude":"80.4270885"},
  {"Name":"HERATH H.M.W.G.C.S.","Address":"NO. 15/29, NAGAWANARAMA ROAD, NADAGAMUWA, KOTUGODA.","Latitude":"7.1260819","Longitude":"79.9488109"},
  {"Name":"HERATH M.D.M.","Address":"E-24, GALWALA ROAD, KUREMPOLA, RAMBUKKANA.","Latitude":"7.3096023","Longitude":"80.3838086"},
  {"Name":"HESHANI H.K.E.S.","Address":"NO. 716, MUWANPELESSA, SOORIYAWEWA.","Latitude":"6.3110203","Longitude":"81.0059263"},
  {"Name":"HETTIARACHCHI E.V.","Address":"354/A, GALLE ROAD, ANGAGODA, BENTOTA.","Latitude":"6.4511173","Longitude":"79.9865457"},
  {"Name":"HETTIARACHCHI H.H.T.","Address":"NO. 130/11, DEWALA ROAD, MAKOLA NORTH, MAKOLA.","Latitude":"6.9801495","Longitude":"79.9401029"},
  {"Name":"HETTIARACHCHI H.S.I.","Address":"362/F1, WELEWATTA, DELGODA.","Latitude":"","Longitude":""},
  {"Name":"HEWAGE N.U.","Address":"AMBHAGAHARUPPA, DENAGAMA EAST, HAKMANA.","Latitude":"6.10685","Longitude":"80.6486231"},
  {"Name":"HEWAWASAM A.K.L.","Address":"NO. 16/9, 2ND LANE, DHARMASHOKA MAWATHA, KANDY.","Latitude":"7.30473409999999","Longitude":"80.6447544"},
  {"Name":"HIMASHINI N.R.","Address":"NO. 473, WELIHENA SOUTH, KOCHCHIKADE.","Latitude":"7.2421487","Longitude":"79.8646835"},
  {"Name":"HIRUSHA A.V.T.","Address":"NO. 254, KEERIPITIYA GEDARA, UDAPASGODA, PASGODA.","Latitude":"6.2894922","Longitude":"80.616551"},
  {"Name":"HISAM M.R.M.R.M.","Address":"AL MANAR, MANDALAKUDA, KALPITIYA.","Latitude":"8.22593369999999","Longitude":"79.7641694"},
  {"Name":"HUSSAIN M.Z.Z.","Address":"114, BOPE ROAD, DADALLA, GALLE.","Latitude":"6.0533766","Longitude":"80.1920993999999"},
  {"Name":"ISHARA H.W.K.","Address":"113/41/A, BOGAHAGODAWATHTHA, MIRISWATHTHA, BENTOTA.","Latitude":"6.4189175","Longitude":"80.005979"},
  {"Name":"ISURANGA A.G.I.","Address":"\"ISURANGA\", THELLAMBURA, NAKIYADENIYA, GALLE.","Latitude":"6.1433285","Longitude":"80.3421984"},
  {"Name":"ISURANGI K.D.U.","Address":"NO. 110/2, PINIDIYAGARA LANE, MAWITHTHARA, MAHARAGAMA ROAD, PILIYANDALA.","Latitude":"6.80538309999999","Longitude":"79.9263541"},
  {"Name":"ISURU D.M.B.","Address":"ISURU, GODAKUMBURA, IHALA KOTAWERA, WELIMADA.","Latitude":"6.9058016","Longitude":"80.9094827"},
  {"Name":"JANAKANTHA S.M.B.G.","Address":"NO. 148/1, WEDHAPOLA, POTHUHERA.","Latitude":"7.42167239999999","Longitude":"80.3296664"},
  {"Name":"JANANGA T.G.C.","Address":"NO. 53/1, DAWATADENIYA, WILPITA, AKURESSA.","Latitude":"6.1001388","Longitude":"80.4759567"},
  {"Name":"JANANJANA N.M.C.","Address":"GEPALLAWA, UHUMEEYA, KURUNEGALA.","Latitude":"7.46960279999999","Longitude":"80.3161806999999"},
  {"Name":"JAYALATH J.M.C.H.","Address":"93/170A, CRISPIN PARK, BANDARANAYAKE MAWATHA, KEGALLE.","Latitude":"7.2483688","Longitude":"80.3541217"},
  {"Name":"JAYALATH K.N.","Address":"NO. 84, WAKADA ROAD, HALDADUWANA NORTH, DANKOTUWA.","Latitude":"7.31504359999999","Longitude":"79.9020149999999"},
  {"Name":"JAYANTHA S.W.M.S.","Address":"DIKKELA, BATAPOLA.","Latitude":"6.2331907","Longitude":"80.1154499"},
  {"Name":"JAYARATHNA G.W.S.R.","Address":"26/4, BRIDGE CAMP, UHANA, AMPARA.","Latitude":"7.3017563","Longitude":"81.6747295"},
  {"Name":"JAYARATHNA J.J.R.L.","Address":"WADDEGAMA, WEWAGAMA.","Latitude":"7.4233259","Longitude":"80.1023759"},
  {"Name":"JAYARATHNE P.C.P.","Address":"191/3, SURIYAPALUWA, KADAWATHA.","Latitude":"7.0312634","Longitude":"79.9639730999999"},
  {"Name":"JAYARATHNE P.M.K.R.","Address":"E 32, WALPOLA, DELOLUWA.","Latitude":"","Longitude":""},
  {"Name":"JAYASANKA M.V.J.","Address":"NO. 118/12, ARUKGODA ROAD, ALUBOMULLA.","Latitude":"","Longitude":""},
  {"Name":"JAYASINGHE B.V.R.R.","Address":"TAXILA, SECOND LANE, MALWATTA ROAD, UGGALBODA, KALUTARA.","Latitude":"33.7462826","Longitude":"72.8397317"},
  {"Name":"JAYASINGHE J.A.R.N.","Address":"646/13, MUCHALINDARAMA ROAD, DAMBAWATAWANA 02, GALEWELA.","Latitude":"7.7693477","Longitude":"80.5549707999999"},
  {"Name":"JAYASINGHE K.D.G.R.M.","Address":"H 1/5, SIYAMBALWA, HEMMATHAGAMA.","Latitude":"7.1733601","Longitude":"80.5007755"},
  {"Name":"JAYASINGHE Y.A.T.S.B.","Address":"42, SAPPUWATHTHA, PALAPATHWALA.","Latitude":"7.5377383","Longitude":"80.6271415"},
  {"Name":"JAYASOORIYA E.L.S.","Address":"LAHIRU, PAMBADENIYA, ALAWWA.","Latitude":"7.2954302","Longitude":"80.2366261"},
  {"Name":"JAYASOORIYA P.A.S.V.","Address":"1566/9/28, SIRIMALWATTA, KOTTAWA, PANNIPITIYA.","Latitude":"6.8574576","Longitude":"79.9693681999999"},
  {"Name":"JAYATHILAKA L.L.Y.W.","Address":"NO. 25/1, MONARAHANDUWILA ROAD, WETTAWA, MATHUGAMA.","Latitude":"6.5229925","Longitude":"80.1136318"},
  {"Name":"JAYAWARDANA S.D.U.B.","Address":"413/A, PAHALA HOMBAWA, GALEWELA.","Latitude":"7.74933179999999","Longitude":"80.5467173999999"},
  {"Name":"JAYAWARDENA A.T.R.","Address":"239/1, GONAWALA, (W.P).","Latitude":"6.9693754","Longitude":"79.9543829"},
  {"Name":"JAYAWARDENA M.D.N.G.","Address":"NO. 255, NIWANDAMA, JA ELA.","Latitude":"7.0734533","Longitude":"79.9277762999999"},
  {"Name":"JAYAWARDENA N.K.D.P.","Address":"34, PADIWATTA ROAD, PADIWATTA, NATTARAMPOTHA.","Latitude":"","Longitude":""},
  {"Name":"JAYAWARDHANA N.A.K.R.","Address":"NO. 106A, REGLAND WATHTHA, KUDAYAYA ROAD, WANDURAGALA, KURUNEGALA.","Latitude":"7.47694519999999","Longitude":"80.3788503999999"},
  {"Name":"JAYAWARDHANA W.K.P.","Address":"24/202, UDAYAGIRIYA, UHANA, AMPARA.","Latitude":"7.3710855","Longitude":"81.6290349"},
  {"Name":"JAYAWARDHANE D.S.W.","Address":"DAYAWASA, KORAMBURUWANA, RANSEGODA.","Latitude":"6.8485638","Longitude":"80.26001"},
  {"Name":"JAYAWEERA P.G.D.S.W.","Address":"122/1, MOLAGODA, KEGALLE.","Latitude":"7.2597954","Longitude":"80.398848"},
  {"Name":"JEGAKUMARAN M.","Address":"353/8 G, MANNAR ROAD, VEPPANKULAM, VAVUNIYA.","Latitude":"8.7572774","Longitude":"80.3978954"},
  {"Name":"KAHANDAWAARACHCHI K.A.U.","Address":"135/2, KANDY ROAD, YAKKALA.","Latitude":"7.085334","Longitude":"80.0326855"},
  {"Name":"KAJANIKA S.","Address":"PUTTUR NORTH, ERANTHANAI, JAFFNA.","Latitude":"9.7509602","Longitude":"80.1093147"},
  {"Name":"KARIYAWASAM U.G.S.","Address":"216, BANGALAWATTA ROAD, ULUWITIKE, GALLE.","Latitude":"6.0690018","Longitude":"80.1968668"},
  {"Name":"KARUNARATHNA K.M.P.A.","Address":"NO. 01, POLICE HILL, DIYATHAWLAWA.","Latitude":"6.8060366","Longitude":"80.9602524"},
  {"Name":"KARUNARATHNA M.D.C.A.","Address":"NO.29/1, DUMUNNEGEDARA ROAD, MALLAHAWA, KALELIYA.","Latitude":"7.1970231","Longitude":"80.1107531"},
  {"Name":"KARUNARATHNE K.N.P.","Address":"224/B, PALLEMULLA, HALLOLUWA, KANDY.","Latitude":"7.3019428","Longitude":"80.6076870999999"},
  {"Name":"KARUNARATHNE L.D.N.S.","Address":"NUNGAMUGAMA, KANATHTHEWEWA.","Latitude":"7.626874","Longitude":"80.2170392"},
  {"Name":"KARUNARATHNE P.K.D.V.D.","Address":"330, E/3/3/, N.H.S., SERPENTINE ROAD, BORELLA, COLOMBO 08.","Latitude":"6.9179045","Longitude":"79.8843785999999"},
  {"Name":"KARUNARATNE A.G.S.I.","Address":"NO. 320/C, SILWATHGAMA, GALEWELA.","Latitude":"7.78648109999999","Longitude":"80.5966093"},
  {"Name":"KARUNASINGHE B.C.V.","Address":"NO. 12, HENAMULLA LANE, AMUNAWATTA, KURUNEGALA.","Latitude":"7.470395","Longitude":"80.3673989"},
  {"Name":"KASTHURIARACHCHI K.A.T.D.","Address":"NO. 160, LAWULUPITIYA, WATHURUGAMA.","Latitude":"7.0546548","Longitude":"80.1009796"},
  {"Name":"KASTHURIRATHNE K.T.A.T.T.","Address":"MORAWATHTHA, RUWANWELLA.","Latitude":"7.0466829","Longitude":"80.2510314"},
  {"Name":"KAVEESHA W.D.D.","Address":"NIYANAKETIMULLA ROAD, YATIYANA, AGALAWATTA.","Latitude":"6.5422794","Longitude":"80.157504"},
  {"Name":"KAWYA A.H.D.","Address":"NO. 211/1/A, BOTHALE PAHALAGAMA, AMBEPUSSA.","Latitude":"7.22278409999999","Longitude":"80.1683695"},
  {"Name":"KEERTHISENA C.M.","Address":"NO. 20, HEIGHTENFORD, AMAPAKANDA ROAD, NAWALAPITIYA.","Latitude":"7.0318979","Longitude":"80.5298066"},
  {"Name":"KETHARAGAN P.","Address":"NO. 789, HUDSON ROAD, VADDAKACHCHI, KILINOCHCHI.","Latitude":"9.34682269999999","Longitude":"80.4576835"},
  {"Name":"KEVINDA M.M.","Address":"51/2, THANTHIRIGEWATTA, KOTIGAMGODA, PADUKKA.","Latitude":"6.8413593","Longitude":"80.0920340999999"},
  {"Name":"KISHOKARAN P.","Address":"MUTHALIYAAR VALAVU, VATHIRI, KARAVEDDY, JAFFNA.","Latitude":"9.8065753","Longitude":"80.2029888"},
  {"Name":"KITHSARANIE P.D.H.","Address":"61/2, PALPOLAWATHTHA, GODAGAMA, MEEGODA.","Latitude":"6.8457458","Longitude":"80.0372946"},
  {"Name":"KODAGODA D.S.S.","Address":"NO. 79, ABAYAPURA, ANURADHAPURA.","Latitude":"8.2965205","Longitude":"80.4320051999999"},
  {"Name":"KOPIKAN T.","Address":"NO. 102/25, VELLUVADY LANE, SUTHUMALAI NORTH, MANIPAY.","Latitude":"9.7291062","Longitude":"79.9925446"},
  {"Name":"KOTHALAWALA S.M.","Address":"311/34, HANSAWIMANA, HANSAGIRI ROAD, GAMPAHA.","Latitude":"7.0844606","Longitude":"80.0150355"},
  {"Name":"KULASEKARA P.M.N.","Address":"46/1, YABARALUWA, MALWANA.","Latitude":"6.94719959999999","Longitude":"80.0103824"},
  {"Name":"KULASINGHA K.A.A.M.","Address":"NO. 354, DUNAKADENIYA SOUTH, WALIPANNAGAHAMULLA.","Latitude":"7.4329487","Longitude":"79.9374582"},
  {"Name":"KUMARA K.V.S.","Address":"MOLEGEWATHTHA, WALPALA, IMADUWA.","Latitude":"6.0382659","Longitude":"80.3909164"},
  {"Name":"KUMARA M.P.K.L.","Address":"NO. 895/1, SAMANPAYA, PERADENIYA ROAD, KANDY.","Latitude":"7.28161359999999","Longitude":"80.6209311"},
  {"Name":"KUMARASINGHE G.M.B.","Address":"411/1B, SUHADA MAWATHA, KIRILLAWALA, KADAWATHA.","Latitude":"7.0245726","Longitude":"79.9756941999999"},
  {"Name":"KUMARASINGHE K.W.I.T.","Address":"60 B, KAIKAWALA, INDURUWA.","Latitude":"6.37585109999999","Longitude":"80.0093105"},
  {"Name":"KUMARASINGHE R.M.S.H.","Address":"KUMARASINGHE NIWASA, MAHAWEHARA, MADIPOLA, MATALE.","Latitude":"7.6761154","Longitude":"80.5827272"},
  {"Name":"KUMARASIRI M.A.S.K.","Address":"NO. 303, 8TH LANE, DESIMOUNT, PILLESSA.","Latitude":"39.9103722","Longitude":"-74.0804241"},
  {"Name":"KURUNDUGAHAMADA K.G.S.K.","Address":"332, HEDENIYA, WERELLAGAMA, KANDY.","Latitude":"7.3397009","Longitude":"80.5559193"},
  {"Name":"LAHIRUKA E.G.S.","Address":"NO. 1/54, GURUDALA ROAD, DEHIGASMULLA, MATHUGAMA.","Latitude":"6.5352216","Longitude":"80.1140989"},
  {"Name":"LAKSHAN G.A.S.","Address":"NO. 216/4, RUVANSIRI SEVANA, WEPATHAIRA, HAKMANA.","Latitude":"6.1021449","Longitude":"80.6634864"},
  {"Name":"LIYANAARACHCHI S.N.","Address":"291/37/4, KIRITHTHAMULLA, YAKKALA.","Latitude":"7.0864153","Longitude":"80.0335107"},
  {"Name":"LIYANAGE D.L.D.C.","Address":"NO. 96/A, GALLE ROAD, POHADDARAMULLA, WADDUWA.","Latitude":"6.6044063","Longitude":"79.9542912"},
  {"Name":"LIYANAGUNAWARDHANA H.D.","Address":"NO. 303/2, SUMEDHA MAWATHA, GANEMULLA.","Latitude":"7.06497649999999","Longitude":"79.9651561"},
  {"Name":"LOKUGAMAGE R.C.","Address":"125/11, SAMEEPA, WEHELGODA, MATARA.","Latitude":"5.9480552","Longitude":"80.5818359"},
  {"Name":"LUDHARSHAN Y.","Address":"NO. 201, GAMAN BUILDING, DICKOYA.","Latitude":"6.875298","Longitude":"80.6035493999999"},
  {"Name":"MADANAYAKE I.U.W.","Address":"POLGAHAGODAKANATTA, BERANAGODA, YAKKALAMULLA.","Latitude":"6.0948937","Longitude":"80.3408061"},
  {"Name":"MADAWELA H.M.C.S.","Address":"PRABUDDHINIWASA, 6TH MILE POST, MEDAWELAGAM, PASSARA.","Latitude":"6.9349088","Longitude":"81.1526976"},
  {"Name":"MADHUBHANI A.M.M.","Address":"GAMPAHA STORES, WELGALA, NELLIYA.","Latitude":"7.0921096","Longitude":"80.0133498"},
  {"Name":"MADHURANDA A.K.S.","Address":"MAHIKALA, DANDENIYA, URUGAMUWA, MATARA.","Latitude":"5.9716762","Longitude":"80.6951041"},
  {"Name":"MADHUSANKA M.K.S.","Address":"C 1/4, UPALI STORES, GINIGATHHENA ROAD, THANAKOLAWATTA COLONY.","Latitude":"7.1203986","Longitude":"80.351422"},
  {"Name":"MADHUSHANKA P.K.P.","Address":"LOKUGEDARAWATTA, BORALUKADA, BADDEGAMA.","Latitude":"6.1563355","Longitude":"80.1944807"},
  {"Name":"MADHUSHANKA W.K.K.","Address":"NO. 444, EPITAWALA ROAD, PELAWATTA, MATUGAMA.","Latitude":"6.5219432","Longitude":"80.1136851999999"},
  {"Name":"MADHUWANTHA M.J.K.","Address":"\"HATTON NIWASA\", NAHINIGALA, URALA, WANDURAMBA.","Latitude":"6.1368794","Longitude":"80.2753393"},
  {"Name":"MADUGALLA M.W.V.C.B.","Address":"KABALAWA, DEEGALLA.","Latitude":"","Longitude":""},
  {"Name":"MADURA T.W.K.J.","Address":"KEKIRIHENA, THALPAWILA, KEKANADURA.","Latitude":"5.9581614","Longitude":"80.5991550999999"},
  {"Name":"MADURANGA N.W.D.","Address":"190/4F/1, DEWALA ROAD, THALANGAMA SOUTH, KOSWATHTHA, BATTARAMULLA.","Latitude":"6.90886299999999","Longitude":"79.9313567"},
  {"Name":"MADURAPPERUMA M.A.T.U.","Address":"NO. 257/A, WIJAYARAMA ROAD, GAMPAHA.","Latitude":"7.09758079999999","Longitude":"80.0019241999999"},
  {"Name":"MADUSANKA K.A.P.","Address":"PIYADASA AGRO CHEMICALS, NEW ROAD JUNCTION, PADALANGALA.","Latitude":"6.24917789999999","Longitude":"80.9152434"},
  {"Name":"MADUSHAN G.D.N.","Address":"NO. 163, KATANA EAST, MADAMPALLA ROAD, KATANA.","Latitude":"7.2591752","Longitude":"79.9122738"},
  {"Name":"MADUSHANI K.M.","Address":"\"SRI NANDANA\", WATHTHEGAMA SOUTH, DICKWELLE.","Latitude":"7.3491464","Longitude":"80.6853986"},
  {"Name":"MADUSHANI W.G.N.K.","Address":"NO. 02, WALAHENA, DEDDUWAWALA, NAKULUGAMUWA.","Latitude":"7.4051649","Longitude":"80.6025083999999"},
  {"Name":"MAHAPELI M.G.M.U.","Address":"138/F, RATHMALAGOLLA, LENADORA.","Latitude":"","Longitude":""},
  {"Name":"MAHATHANTHILA R.T.","Address":"87/G/1, ST. JUDE MAWATHA, DALUGAMA, KELANIYA.","Latitude":"6.9752231","Longitude":"79.9206694"},
  {"Name":"MALHARA W.A.H.","Address":"NO. 87/3A, WATHUGEDARA NORTH, WATHUGEDARA.","Latitude":"6.2626566","Longitude":"80.0607516"},
  {"Name":"MALINDA M.W.","Address":"NO. 662, KIRIIBANWEWA, SEWANAGALA.","Latitude":"6.325366","Longitude":"80.9198033999999"},
  {"Name":"MALINGA G.A.I.","Address":"457/1, DANGALLA, PEPILIYAWALA.","Latitude":"6.9931028","Longitude":"80.1386713999999"},
  {"Name":"MALINTHA K.M.K.","Address":"NO. 16, MENDIS WEDA MAWATHA, THALPITIYA SOUTH, WADDUWA.","Latitude":"6.6803783","Longitude":"79.9246972999999"},
  {"Name":"MALSHAN P.G.P.","Address":"417/D/15, GANGASIRIPURA, KIRIBATHAWILA, BADDEGAMA.","Latitude":"6.1739577","Longitude":"80.1751901"},
  {"Name":"MANTHRIERATHNA M.A.R.D.","Address":"NO. 47/4, DETHEMULLA, PUGODA.","Latitude":"6.9685364","Longitude":"80.1051684"},
  {"Name":"MANUJAYA I.G.H.","Address":"SITHUMINA, WELIPITIYA, WELIGAMA.","Latitude":"6.0441246","Longitude":"80.4150473999999"},
  {"Name":"MANUKA B.G.P.","Address":"45, NEWUNGALA, KOTTAWAGAMA, GALLE.","Latitude":"6.1027546","Longitude":"80.3177487999999"},
  {"Name":"MAPAGEDARA T.L.B.","Address":"MAPA NIWASA, IHALA GORAKAOYA, NAWALAPITIYA.","Latitude":"7.06630609999999","Longitude":"80.5536188999999"},
  {"Name":"MARASINGHA M.A.D.V.","Address":"\"JAYANATH\", KARANDAWA, KOORATIHENA, HETTIPOLA.","Latitude":"7.53311239999999","Longitude":"80.9152434"},
  {"Name":"MARASINGHA M.A.W.P.","Address":"628, KUMBUKGAHAMULLA, WELIPENNAGAHAMULLA.","Latitude":"7.43131539999999","Longitude":"79.9275756"},
  {"Name":"MARTINUS B.L.S.N.","Address":"NO. 59, JAYAGATH PLACE, MODARA, MORATUWA.","Latitude":"6.7234321","Longitude":"79.9004284999999"},
  {"Name":"MEMMENDAARACHCHI M.A.S.D.","Address":"104/3, THANTHIRIMULLA, PANADURA.","Latitude":"6.7292681","Longitude":"79.9246482"},
  {"Name":"MENDIS A.W.E.R.","Address":"16/3, 1ST LANE, MORATUMULLA, MORATUWA.","Latitude":"6.8032249","Longitude":"79.8899596999999"},
  {"Name":"METHPURA S.K.P.","Address":"NO. 09, DANGOLLAWATHTHA, GALGAMMULLA, WEWAGAMA.","Latitude":"7.42432299999999","Longitude":"80.0992584"},
  {"Name":"METHSARA D.M.P.","Address":"NO. 487, KALUGALAHENA, DENIYAYA.","Latitude":"6.341641","Longitude":"80.5689431999999"},
  {"Name":"MIHIRANGA S.M.K.","Address":"GALAGAWA GEDARA, KADIRAPOLA, NARANGODA.","Latitude":"6.6435695","Longitude":"80.5325385"},
  {"Name":"MUNASINGHA K.M.P.M.","Address":"KAPUKOTUWA, AMBAGASDOWA.","Latitude":"6.928071","Longitude":"80.8965758"},
  {"Name":"MUNASINGHA M.A.T.M.S.","Address":"NO. 23, RAJAPAKSHAGAMA, MALWANEGAMA, THALAWA.","Latitude":"8.1977493","Longitude":"80.3289843"},
  {"Name":"MUNASINGHE S.L.","Address":"178 C, AKADAMULLA, NAUTHTHUDUWA.","Latitude":"","Longitude":""},
  {"Name":"MUTHUMALA T.D.","Address":"20/48, GREEN TERRACE, PARAKANDENIYA, IMBULGODA.","Latitude":"7.03659249999999","Longitude":"79.9813874"},
  {"Name":"NADEERA U.D.S.D.","Address":"62/A/04, ANGANGODA, PAYAGALA.","Latitude":"6.5393208","Longitude":"79.9777912"},
  {"Name":"NANAYAKKARA A.T.L.","Address":"23/92, WESTERN PARK, KALAGEDIHENA.","Latitude":"7.12590369999999","Longitude":"80.0597964999999"},
  {"Name":"NANTHABALAN G.","Address":"27A/2, ARASAVEETHY, NALLUR, JAFFNA.","Latitude":"9.6745323","Longitude":"80.0294438999999"},
  {"Name":"NAWAMINA H.M.G.P.","Address":"JAYAWASA, PAHALAGAMA, OKKAMPITIYA, BUTTALA.","Latitude":"6.750035","Longitude":"81.3076193"},
  {"Name":"NIJAN S.","Address":"KALAICHCHELVI ROAD, TELLIPPALAI EAST, TELLIPPALAI.","Latitude":"9.7859882","Longitude":"80.0336781"},
  {"Name":"NILUPUL D.R.P.","Address":"161/A/1, KOPIYAWATTA, DELDUWA, WADDUWA.","Latitude":"6.64725809999999","Longitude":"79.9600272"},
  {"Name":"NIMALAWEERA P.H.S.V.","Address":"\"NIMALA\", POLLEWWA, BATAPOLA, VIA AMBALANGODA.","Latitude":"6.2242057","Longitude":"80.113777"},
  {"Name":"NIMESHA K.P.S.","Address":"NO. 73, PARANAWATHTHAHENA, AKURUGODA, SULTHANAGODA.","Latitude":"5.9772421","Longitude":"80.5109948"},
  {"Name":"NIPUN P.G.D.","Address":"C8, ATHAPATHTHUGAMA, USWEWA, TANGALLE.","Latitude":"6.0243383","Longitude":"80.7940725999999"},
  {"Name":"NIRANJAN S.","Address":"31/2G, RIVERDALE ROAD, ANNIWATTE, KANDY.","Latitude":"7.2909223","Longitude":"80.6208930999999"},
  {"Name":"NIRMANI K.G.H.","Address":"NO. 4/15, UDUGAMPOLA GARDEN, UDUGAMPOLA.","Latitude":"7.1263574","Longitude":"79.9780177999999"},
  {"Name":"NIROSHAN B.G.L.","Address":"116/1, KATUWANA ROAD, MIDDENIYA.","Latitude":"6.1572742","Longitude":"80.6979916"},
  {"Name":"NISHSHANKA N.A.E.R.D.","Address":"286/B, ANAGARIKA DHARMAPALA MAWATHA, MAKUMBURA, KOTTAWA.","Latitude":"6.8411652","Longitude":"79.9654324"},
  {"Name":"NISSANKA G.T.","Address":"NO. 2013, KATTAKADUWA, RANNA.","Latitude":"7.97152549999999","Longitude":"80.2809128999999"},
  {"Name":"NISSANKA N.A.A.J.L.","Address":"RADALIYAGODA, KATUPOTHA, KURUNEGALA.","Latitude":"7.55053449999999","Longitude":"80.1908642"},
  {"Name":"PADENIYA S.M.N.N.","Address":"102/K, GOHAGODA ROAD, POLWATTA, KATUGASTOTA.","Latitude":"7.314482","Longitude":"80.6229786999999"},
  {"Name":"PADMARAJA W.R.A.S.","Address":"SADUSEVANA, GAVILIPITIYA, ARANAYAKA.","Latitude":"7.1496651","Longitude":"80.4649829"},
  {"Name":"PALIHAKKARA O.T.","Address":"ASHOKA, DANDENIYA SOUTH, RATHMALE, MATARA.","Latitude":"6.0236315","Longitude":"80.600332"},
  {"Name":"PANAWENNAGE L.S.","Address":"338/1, PALLEGETTUWANA ROAD, MUTHTHETTUGALA, KURUNEGALA.","Latitude":"7.49581849999999","Longitude":"80.3791093999999"},
  {"Name":"PATHIRAGE R.S.","Address":"127/1/A7, PAHALA KARAGAHAMUNA, KADAWATA.","Latitude":"7.01324649999999","Longitude":"79.9401829999999"},
  {"Name":"PATHIRANA B.P.P.","Address":"219/B, DORANAGODA EAST, BEMMULLA.","Latitude":"7.1259517","Longitude":"80.0159182"},
  {"Name":"PATHIRATHNA K.G.P.P.","Address":"147 A, DIWELWATHTHA, IMADUWA.","Latitude":"6.0356504","Longitude":"80.3889713"},
  {"Name":"PEIRIS M.W.O.J.","Address":"387/4C, BODHIRAJA MAWATHA, HABARAKADA, HOMAGAMA.","Latitude":"6.8626824","Longitude":"80.0142477999999"},
  {"Name":"PEIRIS T.M.S.U.","Address":"NO. 49, SUDUAMBE JANAPADAYA, NALAWALANA, GONAWILA.","Latitude":"7.3045325","Longitude":"79.9748116"},
  {"Name":"PERERA B.B.M.R.","Address":"NO. 28/C, DHAMMANANDA MAWATHA, PATHTHALAGEDARA, VEYANGODA.","Latitude":"7.15405519999999","Longitude":"80.0593751999999"},
  {"Name":"PERERA K.M.S.","Address":"N0. 734, HIRIPOKUNA, HETTIPOLA.","Latitude":"7.53311239999999","Longitude":"80.9152434"},
  {"Name":"PERERA M.A.H.P.","Address":"NO. 85, CHAMLIPURA, MORONTUDUWA.","Latitude":"6.6524261","Longitude":"79.9686318999999"},
  {"Name":"PERERA M.C.S.J.","Address":"NO. 166/C, DANDUGAMA, JA-ELA.","Latitude":"7.1017406","Longitude":"79.8842825999999"},
  {"Name":"PERERA P.A.S.","Address":"226, HORANA ROAD, PILIYANDALA.","Latitude":"6.7979226","Longitude":"79.9303348999999"},
  {"Name":"PERERA S.H.D.","Address":"393, ALAGALLA ROAD, KADUGANNWA.","Latitude":"7.253333","Longitude":"80.446389"},
  {"Name":"PERERA W.B.S.P.","Address":"115/8 B, DHARMABANDHU ROAD, NEW GALLE ROAD, EGODAUYANA, MORATUWA.","Latitude":"6.7905039","Longitude":"79.8861556"},
  {"Name":"PINNADUWA P.H.T.D.","Address":"MONARAGALA WATHTHA, ULAPANE.","Latitude":"7.11079649999999","Longitude":"80.566034"},
  {"Name":"PIRATHEEPAN M.","Address":"NATHAN SCHEME, PUNNAINEERAVI, KILINOCHCHI.","Latitude":"9.4011398","Longitude":"80.5611449"},
  {"Name":"PIYASENA K.K.S.P.","Address":"1/395, VIVEKARAMA ROAD, WILEGODA, KALUTARA NORTH.","Latitude":"6.6010917","Longitude":"79.9583512999999"},
  {"Name":"PIYOSHAN S.","Address":"37, THALAPATHU ROAD, PERIYA KALLAR, KALLAR 03.","Latitude":"7.4676942","Longitude":"81.814238"},
  {"Name":"PIYUMANTHA M.S.N.","Address":"WATHUGEDARA THOTA, WATHUGEDARA, BALAPITIYA.","Latitude":"6.2612121","Longitude":"80.0604774"},
  {"Name":"PRADEEP H.W.S.S.","Address":"NO. 16, JAYATHILINAGAMA, ELLEWELA, HAKMANA.","Latitude":"6.0966667","Longitude":"80.5980556"},
  {"Name":"PRAMUDITHA W.A.K.J.","Address":"24/8, VINSANT ROAD, ALOKAPURA, BELIATTA.","Latitude":"6.0491101","Longitude":"80.7352983"},
  {"Name":"PRANCIS P.B.A.K.","Address":"NO. 196/3, KOTTUNNA, POLGAHAANGA, WELIGALLA.","Latitude":"6.9630757","Longitude":"79.9783272"},
  {"Name":"PRASADINIE H.A.M.T.","Address":"JAYATHA, HANDUGALA, MATARA.","Latitude":"5.95492","Longitude":"80.5549561"},
  {"Name":"PRAVEEN K.M.G.S.","Address":"NO. 240/4, WEDAMULLA ROAD, KELANIYA.","Latitude":"6.9639869","Longitude":"79.9041074"},
  {"Name":"PREMARATHNE K.M.M.D.","Address":"NO. 36, GORAKADENIYA, PERADENIYA.","Latitude":"7.25749649999999","Longitude":"80.6008054"},
  {"Name":"PREMARATHNE R.M.M.D.","Address":"NO. 17, PAHALAKADE WATTA, WELLAWA.","Latitude":"7.5615466","Longitude":"80.3686488"},
  {"Name":"PREMASIRI A.M.E.","Address":"PANGOLLA, MAHARACHCHIMULLA.","Latitude":"7.3455749","Longitude":"80.2056382"},
  {"Name":"PREMASIRI L.R.S.R.","Address":"19/7, KOTIKATUGODAWATTA, HIYARAPITIYA, HANDESSA.","Latitude":"7.2303052","Longitude":"80.582033"},
  {"Name":"PUNCHIHEWA T.N.","Address":"SANDAGIRI, GALTHUDUWA, GONAGALAPURA.","Latitude":"6.3826905","Longitude":"80.0339312"},
  {"Name":"PUSHPAKUMARA D.K.J.D.","Address":"140/4A, SOORIYAGODA ROAD, MOLADANDA, KIRIBUTHKUMBURA.","Latitude":"7.2860181","Longitude":"80.5728355"},
  {"Name":"PUSHPAKUMARA W.K.A.Y.","Address":"191/A, KUMARAGODAWATTA, KALAHE, WANCHAWALA.","Latitude":"6.0310407","Longitude":"80.2689841"},
  {"Name":"RAJAKARUNA R.M.C.L.","Address":"MANEWA, IPALOGAMA.","Latitude":"8.1193166","Longitude":"80.5209237"},
  {"Name":"RAJAPAKSHA A.P.","Address":"44/77, WIMALA DAMMA MAHIMI MAWATHA, PALLEKANDA ROAD, WALASMULLA.","Latitude":"6.15931849999999","Longitude":"80.6830837999999"},
  {"Name":"RAJAPAKSHA R.B.G.D.N.","Address":"NO. 58/1, WELIWITW IHALAGAMA, SANGHARAJAPURA.","Latitude":"7.3333769","Longitude":"80.5063340999999"},
  {"Name":"RAJAPAKSHA R.P.T.V.","Address":"GALAWEWA, WANNI RASNAYAKAPURA, NIKAWERATIYA.","Latitude":"8.1188515","Longitude":"80.1058664999999"},
  {"Name":"RAJEEV P.","Address":"KERALIWATHTHA LANE, NEERVELY NORTH, NEERVELY, JAFFNA.","Latitude":"9.7209645","Longitude":"80.0845717"},
  {"Name":"RANASINGHA H.I.L.","Address":"368/1, MALDENIYA, ALAWWA.","Latitude":"7.2954302","Longitude":"80.2366261"},
  {"Name":"RANASINGHE D.T.T.","Address":"GANGARAWALAGODA, WEIHENA, BADDEGAMA.","Latitude":"","Longitude":""},
  {"Name":"RANASINGHE R.A.W.L.","Address":"NO. 31/D, HALIYADDA, DANTHURE.","Latitude":"7.2725604","Longitude":"80.5313433"},
  {"Name":"RANAWAKA P.T.","Address":"KANDADENIYA WATTA, KATUKURUNDA, HABARADUWA.","Latitude":"6.00006599999999","Longitude":"80.3065391"},
  {"Name":"RANAWAKA R.A.D.J.I.","Address":"F/184 D, PATHBERIYA, PARAKADUWA.","Latitude":"6.8257029","Longitude":"80.3073826"},
  {"Name":"RANAWEERA A.G.I.L.","Address":"98, BOMALUWA ROAD, WATAPULUWA, KANDY.","Latitude":"7.3149789","Longitude":"80.6420995"},
  {"Name":"RANDENI R.A.V.H.","Address":"WATHUHERA, THARANA, UDAWELA.","Latitude":"6.9215494","Longitude":"79.8533577"},
  {"Name":"RANDENIYA T.W.","Address":"222/2, HONNANTHARA NORTH, PILIYANDALA.","Latitude":"6.803802","Longitude":"79.9486489"},
  {"Name":"RANDUNU K.V.K.","Address":"NO. 07, NEW TOWN, KUNDASALE, KANDY.","Latitude":"7.3096237","Longitude":"80.7103532"},
  {"Name":"RASANGI K.K.","Address":"MEEDAGALA WATTA, KADURUPE, BOOSSA.","Latitude":"34.0586531","Longitude":"-118.4431374"},
  {"Name":"RASHMIKA H.P.B.D.","Address":"NO. 310, AMUKANATHTHAWATHTHA, HEENATIGALA, THALPE.","Latitude":"6.0166147","Longitude":"80.2753393"},
  {"Name":"RASHMIKA W.C.L.","Address":"NO. 27, PALLIYAWATHTHA ROAD, THISSAMAHARAMA.","Latitude":"6.2753194","Longitude":"81.2856561999999"},
  {"Name":"RATHEES K.","Address":"68/B, KODUVAMADU, CHENKALADY.","Latitude":"7.77110649999999","Longitude":"81.5757517999999"},
  {"Name":"RATHNASIRI H.A.J.D.","Address":"BOGALKANDA, GINIGATHENA.","Latitude":"7.3183794","Longitude":"80.6866302"},
  {"Name":"RATHNAWEERA R.V.C.","Address":"MORAGAHAWATHTHA, RATHAMBA, AMBAGASDOWA.","Latitude":"6.9226512","Longitude":"80.9015769"},
  {"Name":"RATHNAYAKA R.M.B.N.","Address":"DAYALAL, GANGODE PARA, MAGULAGAMA, PADENIYA.","Latitude":"7.6556225","Longitude":"80.2206286999999"},
  {"Name":"RATHNAYAKA R.M.G.M.O.B.","Address":"KANDEGEDDARA, ILUKGODA, MAWANELLA.","Latitude":"7.28467399999999","Longitude":"80.4172923"},
  {"Name":"RATHNAYAKA R.M.M.P.","Address":"KANDE MEDAGAMA, KOSDENIYA.","Latitude":"7.5837822","Longitude":"80.1363034"},
  {"Name":"RATHNAYAKA R.M.P.D.","Address":"NO. 10/D2, NEGOMBO ROAD, BOTHALEGAMA, LUNUWILA.","Latitude":"6.9729164","Longitude":"79.8865527"},
  {"Name":"RATHNAYAKA R.M.V.D.","Address":"NO. 643/C, WELEHANDIYA, KADUWELA.","Latitude":"6.9285761","Longitude":"79.9821807"},
  {"Name":"RATHNAYAKA T.G.R.M.P.S.","Address":"NO. 4/20, DUTUGAMUNU ROAD, MONARAGALA.","Latitude":"6.8650189","Longitude":"81.3494441"},
  {"Name":"RATHNAYAKE G.A.R.H.S.","Address":"88/B/1, HELAPANDENIYA, PINNAWALA, BALANGODA.","Latitude":"7.3014952","Longitude":"80.3867417"},
  {"Name":"RATHNAYAKE R.M.A.P.","Address":"NO. 81/20, MEEGODA ESTATE, PANALUWA, WATAREKA, PADUKKA.","Latitude":"6.8644417","Longitude":"80.0609176999999"},
  {"Name":"RATNAYAKE R.M.T.S.B.","Address":"29/1, PRARTHANA MAWATHA, WATAPULUWA, KANDY.","Latitude":"7.3164967","Longitude":"80.6422525999999"},
  {"Name":"RISHANTHAN S.","Address":"NO. 02, LLG DIVISION, POONAGALLA, BANDARAWELA.","Latitude":"6.8245062","Longitude":"80.9974068"},
  {"Name":"RISMY A.M.","Address":"537/2, PUTTALAM ROAD, GALAPITIYAGAMA, NIKAWERATIYA.","Latitude":"7.8456172","Longitude":"80.0424725"},
  {"Name":"RIYALDEEN F.Z.M.","Address":"49/14P, CIRCULAR ROAD, GALLE.","Latitude":"6.0405406","Longitude":"80.2334431"},
  {"Name":"RUBASINGHE K.N.C.","Address":"80/A/1, \"KALANA\", UDUMULLE GEDARA, KIRIMETIMULLA, TELIJJAWILA.","Latitude":"6.0250846","Longitude":"80.4959114"},
  {"Name":"RUPASINGHE C.A.","Address":"GV 47, GREENVILL, MAHAWATTA WEST, KUNDASALE.","Latitude":"7.2896356","Longitude":"80.6791588"},
  {"Name":"RUTHRARAJASINGAM G.","Address":"G. NIRANJALATHEVY, 3RD CROSS ROAD, VINAYAGAPURAM, VALAICHCHENAI.","Latitude":"","Longitude":""},
  {"Name":"SAHMI M.J.M.","Address":"325B, OSMAN ROAD, SAINTHAMARUTHU 07.","Latitude":"7.3954013","Longitude":"81.8373029999999"},
  {"Name":"SAJEEVAN T.","Address":"NO. 51/7, MOOTHTHA VINAYAGAR STREET, 1ST LANE, NALLUR, JAFFNA.","Latitude":"9.67122569999999","Longitude":"80.0349347"},
  {"Name":"SAMARAKOON S.M.P.H.","Address":"12, UDATENNA ROAD, GODAPOLA, KIWULA, MATALE.","Latitude":"7.4740446","Longitude":"80.6262325"},
  {"Name":"SAMARANAYAKE P.M.","Address":"NO. 57, UDYANA MAWATHA, UYANWATTE, MATARA.","Latitude":"5.9509479","Longitude":"80.547624"},
  {"Name":"SAMARASINGHA W.H.H.R.","Address":"WADURESSA STORES, WADURESSA, BALALLA, MAHO.","Latitude":"","Longitude":""},
  {"Name":"SAMARAWICKRAMA S.B.K.C.","Address":"210/41, HEWAHATA ROAD, THALWATTA, KANDY.","Latitude":"7.2921516","Longitude":"80.6544842"},
  {"Name":"SANDAMALI J.P.D.N.","Address":"NO. 37, SOORIYAPURA, IMBULGASDENIYA.","Latitude":"8.3424929","Longitude":"81.1430477999999"},
  {"Name":"SANDARUWAN P.S.","Address":"KUNURAGAMA, SEEPPUKULAMA, ANURADHAPURA.","Latitude":"8.0644985","Longitude":"80.9898700999999"},
  {"Name":"SANDARUWAN W.A.I.","Address":"120 A, NAHALLA, NEBODA.","Latitude":"6.5916551","Longitude":"80.0926013999999"},
  {"Name":"SANDEEPA K.G.K.","Address":"NO. 264/13, SANDEEPA, PARAKANDENIYA, IMBULGODA.","Latitude":"7.02981879999999","Longitude":"80.0083356"},
  {"Name":"SANDEEPANI D.P.","Address":"NO. 28/A/69, RANSIRIUYANA, HORAGASMULLA, DIVULAPITIYA.","Latitude":"7.209198","Longitude":"80.0011592"},
  {"Name":"SARINDA W.P.","Address":"NO. 5C, ORUTHOTA, GAMPAHA.","Latitude":"7.0818694","Longitude":"79.9867941"},
  {"Name":"SARUSAN S.","Address":"THAMPAKAMAM, PALLAI, KILINOCHCHI.","Latitude":"9.6157337","Longitude":"80.3491598999999"},
  {"Name":"SASEENA A.M.","Address":"23/2, MAGAWATHTHA, DIGANA, HAKMANA.","Latitude":"7.294184","Longitude":"80.7380716"},
  {"Name":"SATHIK G.M.","Address":"120, MAL, 3RD LANE, VILINAYADY 03, SAMMANTHURAI.","Latitude":"7.3574841","Longitude":"81.7951054"},
  {"Name":"SATHSARA G.L.C.","Address":"NO. 05, SWARAJ ROAD, ISSADEEN TOWN, MATARA.","Latitude":"5.9553205","Longitude":"80.5319804"},
  {"Name":"SENADHEERA G.S.","Address":"471/1, KUSUMPURA ROAD, NOCHCHIYAGAMA, ANURADHAPURA.","Latitude":"8.29200099999999","Longitude":"80.2042436"},
  {"Name":"SENADHEERA Y.H.","Address":"NO. 26/1, VIJAYA ROAD, KOLONNAWA, SRI LANKA.","Latitude":"6.9263413","Longitude":"79.8942774"},
  {"Name":"SENANAYAKE E.R.M.S.","Address":"NO. 10/46, JAYANTHIPURA ROAD, KURUNEGALA.","Latitude":"7.4703253","Longitude":"80.3606497"},
  {"Name":"SENANAYAKE S.D.Y.V.","Address":"NO. 124/10/A, MALIGAGODELLA ROAD, UDUMULLA, MULLERIYAWA.","Latitude":"6.92921219999999","Longitude":"79.9492728"},
  {"Name":"SENARATHNA W.L.P.","Address":"AMBALAKANDA ROAD, WALDENIYA KUMBURA, PONDAPE, ARANAYAKA.","Latitude":"7.1496651","Longitude":"80.4649829"},
  {"Name":"SENARATNE C.K.","Address":"369/2, MOWBRAY ROAD, MAHAKANDA, HINDAGALA.","Latitude":"7.2315169","Longitude":"80.6063006"},
  {"Name":"SENAVIRATHNA A.P.B.P.","Address":"117/C, IHALAGAMA, DAMAHANA, BALANGODA.","Latitude":"6.6176132","Longitude":"80.7358691"},
  {"Name":"SENAVIRATHNA D.B.C.M.","Address":"\"CHAMINDA\", UDUWARAGODA, KAHAWA.","Latitude":"6.199761","Longitude":"80.140833"},
  {"Name":"SENEVIRATHNA B.G.G.K.","Address":"NO. 147/74/1, NAWAGAMMANAYA, KATUDENIYA, MATALE.","Latitude":"7.438319","Longitude":"80.6415452"},
  {"Name":"SENEVIRATNE G.S.","Address":"E/F4/U8, RICHMOND HILL RESIDENCIES, BOPE CROSS ROAD, WEKUNUGODA, GALLE.","Latitude":"6.048334","Longitude":"80.1991659999999"},
  {"Name":"SEWMINI K.T.R.","Address":"46/B, PAHALAMAPITIGAMA, MALWANA.","Latitude":"6.9507844","Longitude":"80.0157449"},
  {"Name":"SEYARUBAN R.","Address":"NO. 271/1, SCHOOL ROAD, UKKULANKULAM, VAVUNIYA.","Latitude":"8.7530896","Longitude":"80.475757"},
  {"Name":"SHADHURSHAN N.","Address":"284/3, SANGARAPILLAI ROAD, PANDIRUPPU-02, KALMUNAI.","Latitude":"7.4242944","Longitude":"81.8231193"},
  {"Name":"SHAJUGAN K.","Address":"SCHOOL LANE, KONDAVIL WEST, KONDAVIL, JAFFNA.","Latitude":"9.7055705","Longitude":"80.0240161"},
  {"Name":"SHAMINDI K.S.T.","Address":"38/1, JALASHAYA ROAD, BANDARAWELA.","Latitude":"6.82587799999999","Longitude":"80.9981576"},
  {"Name":"SHEHAN D.N.","Address":"NO. 09, GALABADIHENA, WATAREKA, MEEGODA.","Latitude":"6.842924","Longitude":"80.058078"},
  {"Name":"SHYAMANTHA R.M.M.","Address":"34/32, RAJAGALATHENNA, AMPARA.","Latitude":"7.48294479999999","Longitude":"81.6311786999999"},
  {"Name":"SIDANTHA V.P.H.","Address":"MAHAHENA, WATARAKGODA, BELIATTA.","Latitude":"6.0481573","Longitude":"80.7339144"},
  {"Name":"SIRIWARDANE I.A.U.","Address":"NO. 28/8, KIRIMANDALA MAWATHA, NAWALA, RAJAGIRIYA.","Latitude":"6.89497899999999","Longitude":"79.8883458"},
  {"Name":"SIRIWARDHANA S.M.S.M.","Address":"NO. 199/B, DAYASENA SIRIWARDHANA MAWATHA, NORTH KIRIMETIYANA, LUNUWILA.","Latitude":"7.3289","Longitude":"79.8620861"},
  {"Name":"SITHUMINI K.K.P.","Address":"168/B, ORUTHOTA, GAMPAHA.","Latitude":"7.0818694","Longitude":"79.9867941"},
  {"Name":"SOMATHILAKA A.N.T.","Address":"UDAWELAWATHTHA, DAMBADENIYA.","Latitude":"7.3697147","Longitude":"80.1512317"},
  {"Name":"SOMAWANSA W.A.K.B.","Address":"NO. 375/4, GALTHOTUWA ROAD, KOTIKAWATTA, ANGODA.","Latitude":"6.93199619999999","Longitude":"79.9194921"},
  {"Name":"SOSAI S.A.N.","Address":"THARAPURAM STREET, THALVUPADU, MANNAR, SRI LANKA.","Latitude":"9.00194999999999","Longitude":"79.8708489"},
  {"Name":"SRITHARAN T.","Address":"NO. 8 A 5/1, SANGAM LANE, COLOMBO 06.","Latitude":"6.8729203","Longitude":"79.8660948"},
  {"Name":"SRIYARATHNA D.H.","Address":"155/5A, PAMUNUWILA ROAD, WILAHENA, GOONAWALA, KELANIYA.","Latitude":"6.95577409999999","Longitude":"79.9531705999999"},
  {"Name":"SUBANGAN S.","Address":"KAITHADY WEST, KAITHADY, JAFFNA.","Latitude":"9.6881187","Longitude":"80.0898084999999"},
  {"Name":"SUBASINGHE S.K.","Address":"NO. 351, ETHGALA, GAMPOLA.","Latitude":"7.13283409999999","Longitude":"80.5681484999999"},
  {"Name":"SUGATHADASA D.D.","Address":"321/1, KADUWELA ROAD, THALANGAMA NORTH, BATTARAMULLA.","Latitude":"6.9023359","Longitude":"79.9198708"},
  {"Name":"TANYA N.R.","Address":"NO. 253/C/1, TEMPLE ROAD, WEBODA SOUTH, WEBODA.","Latitude":"7.02511749999999","Longitude":"79.9913005"},
  {"Name":"THARUNDA A.W.R.","Address":"440 A, MAKOLA NORTH, MAKOLA.","Latitude":"","Longitude":""},
  {"Name":"THENNAKOON T.M.S.H.","Address":"NO. 138, CITY GATE, MARALUWAWA, KURUNEGALA.","Latitude":"7.50828639999999","Longitude":"80.3797834"},
  {"Name":"THENNAKOON T.M.S.S.","Address":"46/A, COCOWATTA ROAD, BADULLA.","Latitude":"6.9855059","Longitude":"81.0585112999999"},
  {"Name":"THILAKARATHNA H.A.V.I.","Address":"KANATHTHEWEWA, KANATHTHEWEWA.","Latitude":"7.64279749999999","Longitude":"80.1792361"},
  {"Name":"THILAKARATHNA H.D.D.","Address":"NO. 210/38, 6TH LANE, BADHUGAMA, MATHUGAMA.","Latitude":"6.5219432","Longitude":"80.1136851999999"},
  {"Name":"THILAKARATHNE A.P.","Address":"7/2, BALAKADUWA, ALAWATHUGODA.","Latitude":"7.41992319999999","Longitude":"80.5994734"},
  {"Name":"THILAKASIRI I.A.S.D.","Address":"148/4, NELUM UYANA, PALEEPANA, POOJAPITIYA.","Latitude":"7.375178","Longitude":"80.5896685"},
  {"Name":"THILAKASIRI P.D.","Address":"NO. 30, PULLEYAR KOVIL ROAD, MATALE.","Latitude":"7.46233909999999","Longitude":"80.6167929"},
  {"Name":"THILAKSHANA P.K.A.","Address":"330A/1, DEWALA MAWATHA, UGGALBODA, GAMPAHA.","Latitude":"7.13017119999999","Longitude":"79.9550936"},
  {"Name":"THUDUWEWATTA A.W.","Address":"200/17, PARK LANE, KOTTE ROAD, RAJAGIRIYA.","Latitude":"6.9075098","Longitude":"79.8965755999999"},
  {"Name":"THULANI A.H.","Address":"SOORIYAWATTA, PATTIGALA, BERALAPANATHARA.","Latitude":"","Longitude":""},
  {"Name":"THUSHANTH S.","Address":"\"SINNATHAMBY GARDEN\", NO. 231/B, BOUNDARY ROAD, PUTHUKUDIYIRUPPU, VALAICHENAI.","Latitude":"7.92132759999999","Longitude":"81.5246705"},
  {"Name":"UDAYANGA W.B.K.P.","Address":"NO. 7, KUDA ELAGAMUWA, MAHA ELAGAMUWA, KEKIRAWA.","Latitude":"7.99621309999999","Longitude":"80.6130001"},
  {"Name":"UDAYATHUNGA C.S.","Address":"14/A, KATAPITIYA, MANIKDIWELA.","Latitude":"6.6446912","Longitude":"80.7200557"},
  {"Name":"UKWATHTHA U.A.N.T.","Address":"UKWATHTHA KANDA, AYAGAMA.","Latitude":"6.6355603","Longitude":"80.3129541"},
  {"Name":"VENATH W.H.","Address":"NO. 178/7, NEW ROAD, WEWALDUWA, KELANIYA.","Latitude":"6.976868","Longitude":"79.9125517"},
  {"Name":"VIDANAPATHIRANA R.C.","Address":"NO. 80/A, NAKKALA, MONARAGALA.","Latitude":"6.8900633","Longitude":"81.2986174999999"},
  {"Name":"VIDURANGA G.J.L.","Address":"BORAGOLLA ARAWE GEDARA, WEGAMA, NARANGALA, HALIELA.","Latitude":"7.0289626","Longitude":"80.9967764"},
  {"Name":"VIDUSHA V.S.","Address":"61/1/2, MALWARUSHAWA, DEHIOWITA.","Latitude":"6.9635851","Longitude":"80.2598208"},
  {"Name":"VIMALANANTHAN M.","Address":"KANAKARAYANKULAM NORTH, KANAKARAYANKULAM, VAVUNIYA.","Latitude":"9.0500005","Longitude":"80.5160607999999"},
  {"Name":"VIMUKTHI N.W.H.K.N.","Address":"PUTUWAGODAWATTHA, WADUWELIWITIYA, UNANWITIYA, GALLE.","Latitude":"6.1959431","Longitude":"80.2757914"},
  {"Name":"VINJITHA K.L.N.","Address":"380/16, WALAUWATHTHA, DADALLA, GALLE.","Latitude":"6.049885","Longitude":"80.2018956"},
  {"Name":"VIRAJITHA G.A.R.","Address":"NO. 464/4, GALLE ROAD, AMBALANGODA.","Latitude":"6.240557","Longitude":"80.0536425"},
  {"Name":"VISHWAJITH K.P.A.O.","Address":"55/2/2D, RAJAMAHAVIHARA MAWATHA, ELPITIYA.","Latitude":"6.29956019999999","Longitude":"80.1607562"},
  {"Name":"VITHANAGE S.N.N.","Address":"39/25, IDALGASWATHTHA ROAD, HALPITA, KESBEWA.","Latitude":"6.7897782","Longitude":"79.9590879"},
  {"Name":"VITHANAGE V.I.U.","Address":"45/A, STATION ROAD, UDAHAMULLA, NUGEGODA.","Latitude":"6.8624801","Longitude":"79.9033896"},
  {"Name":"VITHUSHAN E.T.L.","Address":"24/1, KANDY ROAD, ARIYALAI, JAFFNA.","Latitude":"9.6599127","Longitude":"80.1602647"},
  {"Name":"WAHALA W.M.S.N.","Address":"90/1/B, 7 B LANE, REGLANDWATTA, BOYAGANE, KURUNEGALA.","Latitude":"7.449993","Longitude":"80.3421984"},
  {"Name":"WAHALATHANTRI T.N.","Address":"NO. 85A, \"SUPUN\", KANDEWATTA, PAYAGALA.","Latitude":"","Longitude":""},
  {"Name":"WAKKUMBURA M.M.S.S.","Address":"5F, MOUNT BREEZE, HONDIYADENIYA, KANDY.","Latitude":"7.28564229999999","Longitude":"80.6199054"},
  {"Name":"WANASINGHE J.K.","Address":"WARAKAULLAWATTA, MEEPITIYA, KEGALLE.","Latitude":"7.2962507","Longitude":"80.3791708"},
  {"Name":"WANIGASOORIYA W.M.K.S.","Address":"NO. 37, KAHAGOLLAWATHTHA, THUTHTHIRIPITIGAMA.","Latitude":"","Longitude":""},
  {"Name":"WARNASOORIYA W.M.S.S.","Address":"KOONGASWALAYAGAMA, HEELOGAMA, NIKAWERATIYA.","Latitude":"7.74645029999999","Longitude":"80.1040467"},
  {"Name":"WARNASURIYA W.M.A.N.","Address":"519/2/1, SHANTHI, KEROLINE LEENA WATTA, WALAKUMBURUMULLA.","Latitude":"7.4254026","Longitude":"80.0155817"},
  {"Name":"WARSHAKOON P.R.T.S.","Address":"NO. 290/B, NIDAHAS MAWATHA, 5 TH LANE, PULLAYARA JUNCTION, ANURADHAPURA.","Latitude":"8.3127393","Longitude":"80.4312254"},
  {"Name":"WASALATHILAKA N.S.","Address":"14/40, MAHAWELI UYANA, GURUDENIYA ROAD, AMPITIYA.","Latitude":"7.2684902","Longitude":"80.6752497"},
  {"Name":"WEERAMAN S.R.","Address":"ALUTH WALAWWA, GALAGAMA SOUTH, NAKULUGAMUWA.","Latitude":"5.9910637","Longitude":"80.7255734"},
  {"Name":"WEERARATHNA M.K.D.P.","Address":"NO. 139/4, ANDAGALA ROAD, MATUGAMA.","Latitude":"6.5219432","Longitude":"80.1136851999999"},
  {"Name":"WEERARATHNE P.N.V.H.","Address":"202/D/03, NILMINIPURA FIRST LANE, HIDELLANA, RATNAPURA.","Latitude":"6.71422579999999","Longitude":"80.3860459"},
  {"Name":"WEERASINGHE W.M.P.I.B.","Address":"NO. 159/5, GANNORUWA, PERADENIYA.","Latitude":"7.26895979999999","Longitude":"80.5926379"},
  {"Name":"WEERASOORIYA W.M.L.P.","Address":"701/2, RAMBEYAYA, POLPITHIGAMA.","Latitude":"7.82115109999999","Longitude":"80.4062218999999"},
  {"Name":"WEERATHUNGA W.M.Y.K.","Address":"INFRONT OF DHARMIKA COLLEGE, KATUKURUNDA, HABARADUWA, GALLE.","Latitude":"6.0065757","Longitude":"80.2972108"},
  {"Name":"WEERATHUNGE T.I.","Address":"NO. 30/2, RANAWIRU RANJAN SILVA MAWATHA, THALPITIYA NORTH, WADDUWA.","Latitude":"6.6847731","Longitude":"79.9194543999999"},
  {"Name":"WELAGEDARA H.M.W.T.R.B.","Address":"NO. 17, NEW TOWN, GALKIRIYAGMA.","Latitude":"22.5780123","Longitude":"88.4498883999999"},
  {"Name":"WICKRAMAARACHCHI P.A.","Address":"17/28, GHANAWIMALA ROAD, ATHURUGIRIYA.","Latitude":"6.8723185","Longitude":"80.0003875"},
  {"Name":"WICKRAMAGAMAGE A.","Address":"C59, AUGUSTA HILL, BOWALAWATTA ROAD, PERADENIYA.","Latitude":"7.2675972","Longitude":"80.6066922"},
  {"Name":"WICKRAMANAYAKE P.M.","Address":"A F-1 U-6, RICHOMOND HILL RESIDENCIES, BOPE CROSS ROAD, WEKUNAGODA, GALLE.","Latitude":"6.0477329","Longitude":"80.198015"},
  {"Name":"WICKRAMARATHNA R.C.J.","Address":"277, PARAKADAMULLA, HENEGAMA.","Latitude":"","Longitude":""},
  {"Name":"WICKRAMASEKARA D.S.P.","Address":"NO. 107, DHAMMA DASSI MAWATHA, KANDY.","Latitude":"7.3065039","Longitude":"80.6386184999999"},
  {"Name":"WICKRAMASINGHE J.M.W.G.R.L.","Address":"13/10, 7TH MILE POST, AMBAGAHAPELESSA.","Latitude":"7.2321887","Longitude":"80.9995072999999"},
  {"Name":"WICKRAMASINGHE R.T.","Address":"NO. 348/3B, NANDASARA MAWATHA, HOKANDARA NORTH, HOKANDARA.","Latitude":"6.8863302","Longitude":"79.9727738"},
  {"Name":"WIJAYAWARDHANA A.A.U.","Address":"ALWALAPITIYA, DODAMGASLANDA, KURUNEGALA.","Latitude":"7.5666234","Longitude":"80.536322"},
  {"Name":"WIJEKOON W.M.M.K.","Address":"130, WIJAYA NIWASA, MAWATHUPOLA, ALAWATHUGODA.","Latitude":"34.2697121","Longitude":"-118.7916648"},
  {"Name":"WIJERATHNA E.M.I.U.","Address":"71/100, PALLAMA, MATIHAKKA, MATALE.","Latitude":"7.6843939","Longitude":"79.9257969"},
  {"Name":"WIJESINGHE N.T.","Address":"KANATHTHE GEDARA, PORUPITIYA, WARALLA.","Latitude":"6.9060581","Longitude":"79.8508236999999"},
  {"Name":"WIJESINHE W.A.S.M.","Address":"NO. 412/15, DIYAWALA ROAD, MALIGAWATHTHA, KIRINDIWELA.","Latitude":"7.0357238","Longitude":"80.1312947999999"},
  {"Name":"WIJESIRI M.L.V.","Address":"NO. 48, SOORIYA UYANA, KALAHE, WANCHAWALA.","Latitude":"6.0314225","Longitude":"80.2634941"},
  {"Name":"WIJESOORIYA M.L.","Address":"320/A, KURUNEGALA ROAD, NUGAWELA.","Latitude":"7.4817695","Longitude":"80.3608876"},
  {"Name":"WIJETHUNGE P.M.H.S.","Address":"NO. 265, NELUM WEWA MAWATHA, KAHATAWILA WEST, POTHUWATAWANA.","Latitude":"7.342693","Longitude":"79.9126821999999"},
  {"Name":"WIJEWARDHANA A.R.S.S.","Address":"NO. 630/17/20/1, KUDUMIRISALANDA, NEDUNGAMUWA, GAMPAHA.","Latitude":"7.0489741","Longitude":"80.0213538"},
  {"Name":"WIMALARATHNE K.G.B.S.","Address":"NO. 82/7, DIWANAWATTA, BATUGODA, KANDY.","Latitude":"7.361408","Longitude":"80.6014673999999"},
  {"Name":"WIMALAWEERA M.K.I.D.","Address":"NO. 50/50, AMALGAMA, HIYARE, GALLE.","Latitude":"6.0720114","Longitude":"80.3425800999999"},
  {"Name":"YAPA WSPYJC","Address":"305, QUARTERS, DIVISIONAL HOSPITAL, NEW TOWN, KOTMALE.","Latitude":"7.0223089","Longitude":"80.5910567"},
  {"Name":"YOGESH R.J.","Address":"NO. 301/4, GALLE ROAD, PAMBURANA, MATARA.","Latitude":"5.9453945","Longitude":"80.5277548999999"}
  ]